{"results":[
  {
    "id": 23045432,
    "lon": 0,
    "repinned": false,
    "name": "General Assembly @ 1871",
    "state": "IL",
    "address_1": "222 W Merchandise Mart Plaza, 12th Floor",
    "lat": 0,
    "city": "Chicago",
    "country": "us"
  },
  {
    "id": 21934172,
    "lon": -87.635361,
    "repinned": false,
    "name": "1871",
    "state": "IL",
    "address_1": "222 W. Merchandise Mart Plaza, 12th Floor",
    "lat": 41.888367,
    "city": "Chicago",
    "country": "us"
  },
  {
    "id": 12459912,
    "lon": -87.629799,
    "repinned": false,
    "name": "DevMynd Studios",
    "state": "IL",
    "address_1": "2035 W. Wabansia Ave. 2nd Floor / Enter the Black Door",
    "lat": 41.878113,
    "city": "Chicago",
    "country": "us"
  },
  {
    "id": 11088462,
    "zip": "60654",
    "lon": -87.643547,
    "repinned": false,
    "name": "Groupon, 3rd floor, Corky Romano",
    "state": "IL",
    "address_1": "600 W Chicago Ave",
    "lat": 41.896915,
    "city": "Chicago",
    "country": "us"
  },
  {
    "id": 12351142,
    "zip": "60661",
    "lon": -87.642685,
    "repinned": false,
    "name": "Table XI",
    "state": "IL",
    "address_1": "328 S Jefferson Suite 670",
    "lat": 41.87714,
    "city": "chicago",
    "country": "us"
  },
  {
    "id": 5984892,
    "zip": "60603",
    "lon": -87.63266,
    "repinned": false,
    "name": "Workbridge Associates",
    "state": "IL",
    "address_1": "10 South La Salle Suite #1330",
    "lat": 41.881508,
    "city": "Chicago",
    "country": "us"
  },
  {
    "id": 9475852,
    "zip": "60614",
    "lon": -87.672493,
    "repinned": false,
    "name": "Palantir.net, Inc.",
    "state": "IL",
    "address_1": "2211 North Elston Avenue",
    "lat": 41.92178,
    "city": "Chicago",
    "country": "us"
  },
  {
    "id": 15629502,
    "lon": -87.629799,
    "repinned": false,
    "name": "Enova International",
    "state": "IL",
    "address_1": "200 West Jackson 13th floor conference center",
    "lat": 41.878113,
    "city": "Chicago",
    "country": "us"
  },
  {
    "id": 3495442,
    "zip": "60611",
    "lon": -87.625412,
    "repinned": false,
    "name": "Loyola University Water Tower Campus, Beane Ballroom (13th Floor, Lewis Towers) ",
    "state": "IL",
    "address_1": "111 E. Pearson Street",
    "lat": 41.89753,
    "city": "Chicago",
    "country": "us"
  },
  {
    "id": 11753632,
    "zip": "60614",
    "lon": -87.645821,
    "repinned": false,
    "name": "NextDoor",
    "state": "IL",
    "address_1": "659 W Diversey Parkway",
    "lat": 41.932686,
    "city": "Chicago",
    "country": "us"
  },
  {
    "id": 23532975,
    "lon": -87.635361,
    "repinned": false,
    "name": "Pivotal Labs Office",
    "state": "IL",
    "address_1": "222 W. Merchandise Mart Plaza, 12th Floor Chicago, ",
    "lat": 41.888367,
    "city": "Chicago",
    "country": "us"
  },
  {
    "id": 23515162,
    "lon": -87.634331,
    "repinned": false,
    "name": "Liferay",
    "state": "IL",
    "address_1": "205 W. Wacker Drive, Suite 720",
    "lat": 41.886574,
    "city": "Chicago",
    "country": "us"
  },
  {
    "id": 8268242,
    "zip": "60604",
    "lon": -87.632271,
    "repinned": false,
    "name": "kCura",
    "state": "IL",
    "address_1": "231 South LaSalle Street",
    "lat": 41.8787,
    "city": "Chicago",
    "country": "us"
  },
  {
    "id": 1176558,
    "zip": "60661",
    "lon": -87.64502,
    "repinned": false,
    "name": "Catalyst Ranch",
    "state": "IL",
    "address_1": "656 W. Randolph St.",
    "lat": 41.884445,
    "city": "Chicago",
    "country": "us"
  },
  {
    "id": 22588722,
    "lon": -87.635361,
    "repinned": false,
    "name": "Braintree",
    "state": "IL",
    "address_1": "222 W Merchandise Mart Plaza Suite 800",
    "lat": 41.888367,
    "city": "Chicago",
    "country": "us"
  },
  {
    "id": 23525472,
    "lon": -87.699051,
    "repinned": false,
    "name": "My Place",
    "state": "IL",
    "address_1": "2845 West Palmer Street, Apt 1",
    "lat": 41.921394,
    "city": "Chicago",
    "country": "us"
  },
  {
    "id": 326492,
    "zip": "60607",
    "lon": -87.650002,
    "repinned": false,
    "name": "Jaks Tap",
    "state": "IL",
    "address_1": "901 W. Jackson, Chicago, IL",
    "lat": 41.880001,
    "city": "Chicago",
    "country": "us"
  },
  {
    "id": 21526942,
    "lon": -87.657074,
    "repinned": false,
    "name": "Digital Bridge Solutions",
    "state": "IL",
    "address_1": "210 N. Racine Suite 2M",
    "lat": 41.885975,
    "city": "Chicago",
    "country": "us"
  },
  {
    "id": 14595102,
    "zip": "60608",
    "lon": -87.657898,
    "repinned": false,
    "name": "South Side Hackerspace: Chicago",
    "state": "IL",
    "address_1": "2233 S. Throop St #214",
    "lat": 41.851337,
    "city": "Chicago",
    "country": "us"
  },
  {
    "id": 17723242,
    "lon": -87.637566,
    "repinned": false,
    "name": "Dev Bootcamp",
    "state": "IL",
    "address_1": "351 W. Hubbard, Suite 700",
    "lat": 41.88969,
    "city": "Chicago",
    "country": "us"
  },
  {
    "id": 20436992,
    "lon": -87.632446,
    "repinned": false,
    "name": "GoTo Webinar",
    "state": "IL",
    "address_1": "Your Computer",
    "lat": 41.884251,
    "city": "Chicago",
    "country": "us"
  },
  {
    "id": 15755122,
    "zip": "60654",
    "lon": -87.637657,
    "repinned": false,
    "name": "Dev Bootcamp",
    "state": "IL",
    "address_1": "351 West Hubbard St. Suite 701",
    "lat": 41.889912,
    "city": "Chicago",
    "country": "us"
  },
  {
    "id": 4352182,
    "zip": "60654",
    "lon": -87.64383,
    "repinned": false,
    "name": "Groupon Chicago",
    "state": "IL",
    "address_1": "600 W Chicago Ave",
    "lat": 41.89936,
    "city": "Chicago",
    "country": "us"
  },
  {
    "id": 23045432,
    "lon": 0,
    "repinned": false,
    "name": "General Assembly @ 1871",
    "state": "IL",
    "address_1": "222 W Merchandise Mart Plaza, 12th Floor",
    "lat": 0,
    "city": "Chicago",
    "country": "us"
  },
  {
    "id": 23532824,
    "lon": -87.632599,
    "repinned": false,
    "name": "JobSpring Partners -- 10 S. LaSalle St., Suite 2110",
    "state": "IL",
    "address_1": "10 South La Salle Street, Suite #2110",
    "lat": 41.881466,
    "city": "Chicago",
    "country": "us"
  },
  {
    "id": 23550352,
    "lon": -87.634727,
    "repinned": false,
    "name": "McDermott Will & Emery",
    "state": "IL",
    "address_1": "227 W Monroe St Ste 3100",
    "lat": 41.880272,
    "city": "Chicago",
    "country": "us"
  },
  {
    "id": 23556536,
    "lon": -87.630676,
    "repinned": false,
    "name": "Fjord Design and Innovation at Accenture Chicago",
    "state": "IL",
    "address_1": "161 N. Clark St",
    "lat": 41.88485,
    "city": "Chicago",
    "country": "us"
  },
  {
    "id": 21669832,
    "lon": -87.624619,
    "repinned": false,
    "name": "Realtor Building",
    "state": "IL",
    "address_1": "430 North Michigan Avenue",
    "lat": 41.890396,
    "city": "Chicago",
    "country": "us"
  },
  {
    "id": 22588722,
    "lon": -87.635361,
    "repinned": false,
    "name": "Braintree",
    "state": "IL",
    "address_1": "222 W Merchandise Mart Plaza Suite 800",
    "lat": 41.888367,
    "city": "Chicago",
    "country": "us"
  },
  {
    "id": 23532756,
    "lon": -87.637024,
    "repinned": false,
    "name": "10th Magnitude",
    "address_1": "20 N Wacker Dr",
    "lat": 41.882401,
    "country": "US",
    "city": "Chicago"
  },
  {
    "id": 16469592,
    "zip": "60606",
    "lon": -87.636513,
    "repinned": false,
    "name": "Rightpoint",
    "state": "IL",
    "address_1": "29 North Upper Wacker Drive",
    "lat": 41.882793,
    "city": "Chicago",
    "country": "us"
  },
  {
    "id": 23488674,
    "lon": -87.635361,
    "repinned": false,
    "name": "Braintree",
    "state": "IL",
    "address_1": "222 W Merchandise Mart Plaza",
    "lat": 41.888367,
    "city": "Chicago",
    "country": "us"
  },
  {
    "id": 23045432,
    "lon": 0,
    "repinned": false,
    "name": "General Assembly @ 1871",
    "state": "IL",
    "address_1": "222 W Merchandise Mart Plaza, 12th Floor",
    "lat": 0,
    "city": "Chicago",
    "country": "us"
  },
  {
    "id": 19288982,
    "lon": -87.628922,
    "repinned": false,
    "name": "Sprout Social",
    "state": "IL",
    "address_1": "131 S Dearborn St., Ste. 1000",
    "lat": 41.879795,
    "city": "Chicago",
    "country": "us"
  },
  {
    "id": 23545189,
    "lon": -87.626999,
    "repinned": false,
    "name": "SPACE ",
    "state": "IL",
    "address_1": "444 N. Wabash Ave, 5th floor",
    "lat": 41.890671,
    "city": "Chicago",
    "country": "us"
  },
  {
    "id": 11088462,
    "zip": "60654",
    "lon": -87.643547,
    "repinned": false,
    "name": "Groupon, 3rd floor, Corky Romano",
    "state": "IL",
    "address_1": "600 W Chicago Ave",
    "lat": 41.896915,
    "city": "Chicago",
    "country": "us"
  },
  {
    "id": 19686242,
    "lon": -87.634193,
    "repinned": false,
    "name": "West Monroe Partners LLC",
    "address_1": "222 W Adams St Fl 11",
    "lat": 41.879395,
    "country": "US",
    "city": "Chicago"
  },
  {
    "id": 8270542,
    "zip": "60601",
    "lon": -87.623581,
    "repinned": false,
    "name": "Chicago Community Trust",
    "state": "IL",
    "address_1": "225 North Michigan Avenue",
    "lat": 41.886379,
    "city": "Chicago",
    "country": "us"
  },
  {
    "id": 23560394,
    "zip": "60657",
    "lon": -87.644394,
    "repinned": false,
    "name": "Doejo",
    "state": "IL",
    "address_1": "3128 N Broadway St",
    "lat": 41.938534,
    "city": "Chicago",
    "country": "us"
  },
  {
    "id": 11088462,
    "zip": "60654",
    "lon": -87.643547,
    "repinned": false,
    "name": "Groupon, 3rd floor, Corky Romano",
    "state": "IL",
    "address_1": "600 W Chicago Ave",
    "lat": 41.896915,
    "city": "Chicago",
    "country": "us"
  },
  {
    "id": 21453002,
    "lon": -87.634102,
    "repinned": false,
    "name": "Enova",
    "state": "IL",
    "address_1": "200 W. Jackson Blvd., Floor 9",
    "lat": 41.878418,
    "city": "Chicago",
    "country": "us"
  },
  {
    "id": 17723242,
    "lon": -87.637566,
    "repinned": false,
    "name": "Dev Bootcamp",
    "state": "IL",
    "address_1": "351 W. Hubbard, Suite 700",
    "lat": 41.88969,
    "city": "Chicago",
    "country": "us"
  },
  {
    "id": 23045432,
    "lon": 0,
    "repinned": false,
    "name": "General Assembly @ 1871",
    "state": "IL",
    "address_1": "222 W Merchandise Mart Plaza, 12th Floor",
    "lat": 0,
    "city": "Chicago",
    "country": "us"
  },
  {
    "id": 23532975,
    "lon": -87.635361,
    "repinned": false,
    "name": "Pivotal Labs Office",
    "state": "IL",
    "address_1": "222 W. Merchandise Mart Plaza, 12th Floor Chicago, ",
    "lat": 41.888367,
    "city": "Chicago",
    "country": "us"
  },
  {
    "id": 23555051,
    "lon": -87.67662,
    "repinned": false,
    "name": "Easy Bar",
    "state": "IL",
    "address_1": "1944 W Division",
    "lat": 41.903515,
    "city": "Chicago",
    "country": "us"
  },
  {
    "id": 17723242,
    "lon": -87.637566,
    "repinned": false,
    "name": "Dev Bootcamp",
    "state": "IL",
    "address_1": "351 W. Hubbard, Suite 700",
    "lat": 41.88969,
    "city": "Chicago",
    "country": "us"
  },
  {
    "id": 12459912,
    "lon": -87.629799,
    "repinned": false,
    "name": "DevMynd Studios",
    "state": "IL",
    "address_1": "2035 W. Wabansia Ave. 2nd Floor / Enter the Black Door",
    "lat": 41.878113,
    "city": "Chicago",
    "country": "us"
  },
  {
    "id": 11088462,
    "zip": "60654",
    "lon": -87.643547,
    "repinned": false,
    "name": "Groupon, 3rd floor, Corky Romano",
    "state": "IL",
    "address_1": "600 W Chicago Ave",
    "lat": 41.896915,
    "city": "Chicago",
    "country": "us"
  },
  {
    "id": 19873612,
    "lon": -87.644478,
    "repinned": false,
    "name": "Duo Consulting",
    "state": "IL",
    "address_1": "641 W. Lake Street Suite 301",
    "lat": 41.885384,
    "city": "Chicago",
    "country": "us"
  },
  {
    "id": 15629502,
    "lon": -87.629799,
    "repinned": false,
    "name": "Enova International",
    "state": "IL",
    "address_1": "200 West Jackson 13th floor conference center",
    "lat": 41.878113,
    "city": "Chicago",
    "country": "us"
  },
  {
    "id": 11088462,
    "zip": "60654",
    "lon": -87.643547,
    "repinned": false,
    "name": "Groupon, 3rd floor, Corky Romano",
    "state": "IL",
    "address_1": "600 W Chicago Ave",
    "lat": 41.896915,
    "city": "Chicago",
    "country": "us"
  },
  {
    "id": 9790262,
    "zip": "60601",
    "lon": -87.626785,
    "repinned": false,
    "name": "Manifest Digital",
    "state": "IL",
    "address_1": "35 E Wacker Dr #1000",
    "lat": 41.886623,
    "city": "Chicago",
    "country": "us"
  },
  {
    "id": 4352182,
    "zip": "60654",
    "lon": -87.64383,
    "repinned": false,
    "name": "Groupon Chicago",
    "state": "IL",
    "address_1": "600 W Chicago Ave",
    "lat": 41.89936,
    "city": "Chicago",
    "country": "us"
  },
  {
    "id": 11753632,
    "zip": "60614",
    "lon": -87.645821,
    "repinned": false,
    "name": "NextDoor",
    "state": "IL",
    "address_1": "659 W Diversey Parkway",
    "lat": 41.932686,
    "city": "Chicago",
    "country": "us"
  },
  {
    "id": 22588722,
    "lon": -87.635361,
    "repinned": false,
    "name": "Braintree",
    "state": "IL",
    "address_1": "222 W Merchandise Mart Plaza Suite 800",
    "lat": 41.888367,
    "city": "Chicago",
    "country": "us"
  },
  {
    "id": 14475192,
    "zip": "60654",
    "lon": -87.636749,
    "repinned": false,
    "name": "Trunk Club",
    "state": "IL",
    "address_1": "325 W Ohio St, 7th Floor",
    "lat": 41.892277,
    "city": "Chicago",
    "country": "us"
  },
  {
    "id": 23045432,
    "lon": 0,
    "repinned": false,
    "name": "General Assembly @ 1871",
    "state": "IL",
    "address_1": "222 W Merchandise Mart Plaza, 12th Floor",
    "lat": 0,
    "city": "Chicago",
    "country": "us"
  },
  {
    "id": 11088462,
    "zip": "60654",
    "lon": -87.643547,
    "repinned": false,
    "name": "Groupon, 3rd floor, Corky Romano",
    "state": "IL",
    "address_1": "600 W Chicago Ave",
    "lat": 41.896915,
    "city": "Chicago",
    "country": "us"
  },
  {
    "id": 11088462,
    "zip": "60654",
    "lon": -87.643547,
    "repinned": false,
    "name": "Groupon, 3rd floor, Corky Romano",
    "state": "IL",
    "address_1": "600 W Chicago Ave",
    "lat": 41.896915,
    "city": "Chicago",
    "country": "us"
  },
  {
    "id": 17723242,
    "lon": -87.637566,
    "repinned": false,
    "name": "Dev Bootcamp",
    "state": "IL",
    "address_1": "351 W. Hubbard, Suite 700",
    "lat": 41.88969,
    "city": "Chicago",
    "country": "us"
  },
  {
    "id": 4352182,
    "zip": "60654",
    "lon": -87.64383,
    "repinned": false,
    "name": "Groupon Chicago",
    "state": "IL",
    "address_1": "600 W Chicago Ave",
    "lat": 41.89936,
    "city": "Chicago",
    "country": "us"
  },
  {
    "id": 18020032,
    "lon": -87.627151,
    "repinned": false,
    "name": "Palmer House Hilton",
    "state": "IL",
    "address_1": "17 E Monroe St. ",
    "lat": 41.880722,
    "city": "Chicago",
    "country": "us"
  },
  {
    "id": 22588722,
    "lon": -87.635361,
    "repinned": false,
    "name": "Braintree",
    "state": "IL",
    "address_1": "222 W Merchandise Mart Plaza Suite 800",
    "lat": 41.888367,
    "city": "Chicago",
    "country": "us"
  },
  {
    "id": 19430722,
    "lon": -87.6241,
    "repinned": false,
    "name": "National Association-Realtors",
    "address_1": "430 N Michigan Ave",
    "lat": 41.890408,
    "country": "US",
    "city": "Chicago"
  }
]}